Latitude,Longitude,Label
28.55563,77.09519,DEL
19.08869934,72.86789703,BOM
12.990005,80.169296,MAA
13.1979,77.706299,BLR
15.3808,73.831398,GOI 
22.65469933,88.44670105,CCU
17.231318,78.429855,HYD
10.152,76.401901,COK  
23.07719994,72.63469696,AMD
18.5821,73.919701,PNQ